{
"type": "FeatureCollection",
"name": "Musées",
"crs": { "type": "name", "properties": { "name": "urn:ogc:def:crs:OGC:1.3:CRS84" } },
"features": [
{ "type": "Feature", "properties": { "Dénomination": "Musée Horta", "Unnamed: 1": "Musée", "Adresse": "Rue Américaine 25", "Code postal": 1060, "Localité": "Saint-Gilles", "Géolocalisation": "50.824391, 4.355479", "lat": 50.824391, "lon": 4.355479 }, "geometry": { "type": "Point", "coordinates": [ 4.355479, 50.824391 ] } },
{ "type": "Feature", "properties": { "Dénomination": "La Fonderie, Musée Bruxellois de l'industrie et du Travail", "Unnamed: 1": "Musée", "Adresse": "Rue Ransfort 27", "Code postal": 1080, "Localité": "Molenbeek-Saint-Jean", "Géolocalisation": "50.852383837, 4.335881575", "lat": 50.852383836999998, "lon": 4.335881575 }, "geometry": { "type": "Point", "coordinates": [ 4.335881575, 50.852383837 ] } },
{ "type": "Feature", "properties": { "Dénomination": "Musée Insectarium Jean Leclercq - Hexapoda-Waremme", "Unnamed: 1": "Musée", "Adresse": "Rue de Grand’Axhe 45E", "Code postal": 4300, "Localité": "Waremme", "Géolocalisation": "50.682576692, 5.231287966", "lat": 50.682576691999998, "lon": 5.231287966 }, "geometry": { "type": "Point", "coordinates": [ 5.231287966, 50.682576692 ] } },
{ "type": "Feature", "properties": { "Dénomination": "Musée de la Ville d'eaux/Histoire et Archéologie spadoise", "Unnamed: 1": "Musée", "Adresse": "Avenue Reine Astrid 77B", "Code postal": 4900, "Localité": "Spa", "Géolocalisation": "50.491689399, 5.857517699", "lat": 50.491689399000002, "lon": 5.857517699 }, "geometry": { "type": "Point", "coordinates": [ 5.857517699, 50.491689399 ] } },
{ "type": "Feature", "properties": { "Dénomination": "Musée Nam-Ip - Numerical Artefacts Muséum", "Unnamed: 1": "Musée", "Adresse": "Rue Henri Blès 192A", "Code postal": 5000, "Localité": "Namur", "Géolocalisation": "50.465428338, 4.83913961", "lat": 50.465428338000002, "lon": 4.83913961 }, "geometry": { "type": "Point", "coordinates": [ 4.83913961, 50.465428338 ] } },
{ "type": "Feature", "properties": { "Dénomination": "Musée Provincial des Arts Anciens du Namurois - Trésor d'Oignies", "Unnamed: 1": "Musée", "Adresse": "Hôtel de Gaiffier d'Hestroy - Rue de Fer 24", "Code postal": 5000, "Localité": "Namur", "Géolocalisation": "50.465693599, 4.865256285", "lat": 50.465693598999998, "lon": 4.865256285 }, "geometry": { "type": "Point", "coordinates": [ 4.865256285, 50.465693599 ] } },
{ "type": "Feature", "properties": { "Dénomination": "Maison du Patrimoine Médiéval Mosan", "Unnamed: 1": "Musée", "Adresse": "Place du Bailliage 16", "Code postal": 5500, "Localité": "Dinant", "Géolocalisation": "50.272597236, 4.898051497", "lat": 50.272597236000003, "lon": 4.898051497 }, "geometry": { "type": "Point", "coordinates": [ 4.898051497, 50.272597236 ] } },
{ "type": "Feature", "properties": { "Dénomination": "Musée du Malgré-Tout", "Unnamed: 1": "Musée", "Adresse": "Rue de la Gare 28", "Code postal": 5670, "Localité": "Treignes", "Géolocalisation": "50.091251154, 4.680603535", "lat": 50.091251153999998, "lon": 4.680603535 }, "geometry": { "type": "Point", "coordinates": [ 4.680603535, 50.091251154 ] } },
{ "type": "Feature", "properties": { "Dénomination": "Musée Écomusée du Viroin", "Unnamed: 1": "Musée", "Adresse": "Rue Eugène Defraire 63", "Code postal": 5670, "Localité": "Treignes", "Géolocalisation": "50.092843493, 4.669632", "lat": 50.092843492999997, "lon": 4.669632 }, "geometry": { "type": "Point", "coordinates": [ 4.669632, 50.092843493 ] } },
{ "type": "Feature", "properties": { "Dénomination": "Musée International du Carnaval et du Masque", "Unnamed: 1": "Musée", "Adresse": "Rue Saint-Moustier 10", "Code postal": 7130, "Localité": "Binche", "Géolocalisation": "50.408975771, 4.165652194", "lat": 50.408975771000001, "lon": 4.165652194 }, "geometry": { "type": "Point", "coordinates": [ 4.165652194, 50.408975771 ] } },
{ "type": "Feature", "properties": { "Dénomination": "Musée des Beaux-Arts de Tournai", "Unnamed: 1": "Musée", "Adresse": "Enclos Saint-Martin 3", "Code postal": 7500, "Localité": "Tournai", "Géolocalisation": "50.602117503, 3.386479922", "lat": 50.602117503000002, "lon": 3.386479922 }, "geometry": { "type": "Point", "coordinates": [ 3.386479922, 50.602117503 ] } },
{ "type": "Feature", "properties": { "Dénomination": "Musée de l'hôpital Notre-Dame A la Rose", "Unnamed: 1": "Musée", "Adresse": "Place Alix de Rosoit", "Code postal": 7860, "Localité": "Lessines", "Géolocalisation": "50.712776159, 3.831708409", "lat": 50.712776159000001, "lon": 3.831708409 }, "geometry": { "type": "Point", "coordinates": [ 3.831708409, 50.712776159 ] } },
{ "type": "Feature", "properties": { "Dénomination": "Musée de la Ville de Bruxelles", "Unnamed: 1": "Musée", "Adresse": "Grand-Place", "Code postal": 1000, "Localité": "Bruxelles", "Géolocalisation": "50.84655, 4.35224", "lat": 50.84655, "lon": 4.35224 }, "geometry": { "type": "Point", "coordinates": [ 4.35224, 50.84655 ] } },
{ "type": "Feature", "properties": { "Dénomination": "Musée Juif de Belgique", "Unnamed: 1": "Musée", "Adresse": "Rue des Minimes 21", "Code postal": 1000, "Localité": "Bruxelles", "Géolocalisation": "50.840750158, 4.35351466", "lat": 50.840750158, "lon": 4.35351466 }, "geometry": { "type": "Point", "coordinates": [ 4.35351466, 50.840750158 ] } },
{ "type": "Feature", "properties": { "Dénomination": "Musée Marthe Donas", "Unnamed: 1": "Musée", "Adresse": "Rue de la Montagne 36", "Code postal": 1460, "Localité": "Ittre", "Géolocalisation": "50.651414551, 4.267790476", "lat": 50.651414551000002, "lon": 4.267790476 }, "geometry": { "type": "Point", "coordinates": [ 4.267790476, 50.651414551 ] } },
{ "type": "Feature", "properties": { "Dénomination": "Aquarium, Muséum de l'Université de Liège", "Unnamed: 1": "Musée", "Adresse": "Quai Edouard Van Beneden 22", "Code postal": 4020, "Localité": "Liège", "Géolocalisation": "50.638983073838006, 5.578715798262942", "lat": 50.638983073838006, "lon": 5.5787157982629418 }, "geometry": { "type": "Point", "coordinates": [ 5.578715798262942, 50.638983073838006 ] } },
{ "type": "Feature", "properties": { "Dénomination": "Musée Communal de Herstal", "Unnamed: 1": "Musée", "Adresse": "Place de la Licourt 45", "Code postal": 4040, "Localité": "Herstal", "Géolocalisation": "50.670460714, 5.639569601", "lat": 50.670460714000001, "lon": 5.639569601 }, "geometry": { "type": "Point", "coordinates": [ 5.639569601, 50.670460714 ] } },
{ "type": "Feature", "properties": { "Dénomination": "Centre d’interprétation de la pierre", "Unnamed: 1": "Musée", "Adresse": "Rue Joseph Potier 54", "Code postal": 4140, "Localité": "Sprimont", "Géolocalisation": "50.5050145496085, 5.665053899999999", "lat": 50.505014549608497, "lon": 5.6650539 }, "geometry": { "type": "Point", "coordinates": [ 5.6650539, 50.505014549608497 ] } },
{ "type": "Feature", "properties": { "Dénomination": "Musée d'archéologie de Godinne", "Unnamed: 1": "Musée", "Adresse": "La Vieille Ferme – Rue du Prieuré 1A", "Code postal": 5530, "Localité": "Godinne", "Géolocalisation": "50.349645609, 4.866662148", "lat": 50.349645609, "lon": 4.866662148 }, "geometry": { "type": "Point", "coordinates": [ 4.866662148, 50.349645609 ] } },
{ "type": "Feature", "properties": { "Dénomination": "Musée En Piconrue", "Unnamed: 1": "Musée", "Adresse": "Place en Piconrue 2", "Code postal": 6600, "Localité": "Bastogne", "Géolocalisation": "50.005702442, 5.721014374", "lat": 50.005702442, "lon": 5.721014374 }, "geometry": { "type": "Point", "coordinates": [ 5.721014374, 50.005702442 ] } },
{ "type": "Feature", "properties": { "Dénomination": "Musée Gaspar", "Unnamed: 1": "Musée", "Adresse": "Rue des Martyrs 16", "Code postal": 6700, "Localité": "Arlon", "Géolocalisation": "49.683805638, 5.810945212", "lat": 49.683805638000003, "lon": 5.810945212 }, "geometry": { "type": "Point", "coordinates": [ 5.810945212, 49.683805638 ] } },
{ "type": "Feature", "properties": { "Dénomination": "Musée royal de Mariemont", "Unnamed: 1": "Musée", "Adresse": "Chaussée de Mariemont 100", "Code postal": 7140, "Localité": "Morlanwelz", "Géolocalisation": "50.467853, 4.232704", "lat": 50.467853, "lon": 4.232704 }, "geometry": { "type": "Point", "coordinates": [ 4.232704, 50.467853 ] } },
{ "type": "Feature", "properties": { "Dénomination": "TaMat, Centre de la Tapisserie, des Arts du Tissu et des Arts Muraux", "Unnamed: 1": "Musée", "Adresse": "Place Reine Astrid 9", "Code postal": 7500, "Localité": "Tournai", "Géolocalisation": "50.603725924, 3.389563195", "lat": 50.603725924000003, "lon": 3.389563195 }, "geometry": { "type": "Point", "coordinates": [ 3.389563195, 50.603725924 ] } },
{ "type": "Feature", "properties": { "Dénomination": "Musée de Folklore et des Imaginaires", "Unnamed: 1": "Musée", "Adresse": "Réduit des Sions 36", "Code postal": 7500, "Localité": "Tournai", "Géolocalisation": "50.605269035, 3.386461243", "lat": 50.605269035, "lon": 3.386461243 }, "geometry": { "type": "Point", "coordinates": [ 3.386461243, 50.605269035 ] } },
{ "type": "Feature", "properties": { "Dénomination": "Musée d'Histoire Naturelle et Vivarium", "Unnamed: 1": "Musée", "Adresse": "Cour d'Honneur de l'Hôtel de Ville - Rue de l'enclos Saint-Martin 52", "Code postal": 7500, "Localité": "Tournai", "Géolocalisation": "50.602764008, 3.385776983", "lat": 50.602764008000001, "lon": 3.385776983 }, "geometry": { "type": "Point", "coordinates": [ 3.385776983, 50.602764008 ] } },
{ "type": "Feature", "properties": { "Dénomination": "Espace Gallo-Romain", "Unnamed: 1": "Musée", "Adresse": "Rue de Nazareth 2", "Code postal": 7800, "Localité": "Ath", "Géolocalisation": "50.630281188, 3.778569006", "lat": 50.630281187999998, "lon": 3.778569006 }, "geometry": { "type": "Point", "coordinates": [ 3.778569006, 50.630281188 ] } },
{ "type": "Feature", "properties": { "Dénomination": "Musée Belge de la Franc-maçonnerie", "Unnamed: 1": "Musée", "Adresse": "Rue de Laeken 73", "Code postal": 1000, "Localité": "Bruxelles", "Géolocalisation": "50.853001663, 4.351485059", "lat": 50.853001663000001, "lon": 4.351485059 }, "geometry": { "type": "Point", "coordinates": [ 4.351485059, 50.853001663 ] } },
{ "type": "Feature", "properties": { "Dénomination": "Musée Bibliotheca Wittockiana, Musée du Livre et de la Reliure", "Unnamed: 1": "Musée", "Adresse": "Rue du Bémel 23", "Code postal": 1150, "Localité": "Woluwe-Saint-Pierre", "Géolocalisation": "50.832048006, 4.420394462", "lat": 50.832048006000001, "lon": 4.420394462 }, "geometry": { "type": "Point", "coordinates": [ 4.420394462, 50.832048006 ] } },
{ "type": "Feature", "properties": { "Dénomination": "Musée L", "Unnamed: 1": "Musée", "Adresse": "Place des Sciences 3-bte L6.07.01", "Code postal": 1348, "Localité": "Ottignies-LLN", "Géolocalisation": "50.668366569, 4.620072033", "lat": 50.668366569, "lon": 4.620072033 }, "geometry": { "type": "Point", "coordinates": [ 4.620072033, 50.668366569 ] } },
{ "type": "Feature", "properties": { "Dénomination": "Maison de la Métallurgie et de l'industrie de Liège", "Unnamed: 1": "Musée", "Adresse": "Boulevard Raymond Poincaré 17", "Code postal": 4020, "Localité": "Liège", "Géolocalisation": "50.630462717, 5.580059537", "lat": 50.630462717, "lon": 5.580059537 }, "geometry": { "type": "Point", "coordinates": [ 5.580059537, 50.630462717 ] } },
{ "type": "Feature", "properties": { "Dénomination": "Musée du Pays Ourthe-Amblève, Les Amis du Vieux Stavelot", "Unnamed: 1": "Musée", "Adresse": "Place Leblanc 1", "Code postal": 4170, "Localité": "Comblain-au-Pont", "Géolocalisation": "50.475441533, 5.574945984", "lat": 50.475441533000001, "lon": 5.574945984 }, "geometry": { "type": "Point", "coordinates": [ 5.574945984, 50.475441533 ] } },
{ "type": "Feature", "properties": { "Dénomination": "Préhistomuseum, Musée Préhistosite de Ramioul", "Unnamed: 1": "Musée", "Adresse": "Rue de la Grotte 128", "Code postal": 4400, "Localité": "Flémalle", "Géolocalisation": "50.581302317, 5.426657863", "lat": 50.581302317000002, "lon": 5.426657863 }, "geometry": { "type": "Point", "coordinates": [ 5.426657863, 50.581302317 ] } },
{ "type": "Feature", "properties": { "Dénomination": "Musée Communaux", "Unnamed: 1": "Musée", "Adresse": "Rue Renier 17-19", "Code postal": 4800, "Localité": "Verviers", "Géolocalisation": "50.595431867, 5.867105241", "lat": 50.595431867000002, "lon": 5.867105241 }, "geometry": { "type": "Point", "coordinates": [ 5.867105241, 50.595431867 ] } },
{ "type": "Feature", "properties": { "Dénomination": "Musée du Petit Format", "Unnamed: 1": "Musée", "Adresse": "Rue Bassidaine 6", "Code postal": 5670, "Localité": "Nismes", "Géolocalisation": "50.074932082, 4.547781866", "lat": 50.074932081999997, "lon": 4.547781866 }, "geometry": { "type": "Point", "coordinates": [ 4.547781866, 50.074932082 ] } },
{ "type": "Feature", "properties": { "Dénomination": "Musée du Verre", "Unnamed: 1": "Musée", "Adresse": "Bois du Cazier - Rue du Cazier 80", "Code postal": 6001, "Localité": "Charleroi", "Géolocalisation": "50.381179959, 4.443819961", "lat": 50.381179959000001, "lon": 4.443819961 }, "geometry": { "type": "Point", "coordinates": [ 4.443819961, 50.381179959 ] } },
{ "type": "Feature", "properties": { "Dénomination": "Musée Gaumais", "Unnamed: 1": "Musée", "Adresse": "Rue d'Arlon 38-40", "Code postal": 6760, "Localité": "Virton", "Géolocalisation": "49.567737259, 5.535160045", "lat": 49.567737258999998, "lon": 5.535160045 }, "geometry": { "type": "Point", "coordinates": [ 5.535160045, 49.567737259 ] } },
{ "type": "Feature", "properties": { "Dénomination": "MuMons", "Unnamed: 1": "Musée", "Adresse": "Place du Parc 24", "Code postal": 7000, "Localité": "Mons", "Géolocalisation": "50.458560559422956, 3.9535217441795267", "lat": 50.458560559422956, "lon": 3.9535217441795267 }, "geometry": { "type": "Point", "coordinates": [ 3.953521744179527, 50.458560559422956 ] } },
{ "type": "Feature", "properties": { "Dénomination": "Musée Bois du Luc, Musée de la Mine et du Développement Durable", "Unnamed: 1": "Musée", "Adresse": "Rue Saint-Patrice 2B", "Code postal": 7110, "Localité": "La Louvière", "Géolocalisation": "50.470071577, 4.151217221", "lat": 50.470071577, "lon": 4.151217221 }, "geometry": { "type": "Point", "coordinates": [ 4.151217221, 50.470071577 ] } },
{ "type": "Feature", "properties": { "Dénomination": "Musée de Folklore \"Léon Maes\"", "Unnamed: 1": "Musée", "Adresse": "Rue des Brasseurs 3", "Code postal": 7700, "Localité": "Mouscron", "Géolocalisation": "50.741858776, 3.217714124", "lat": 50.741858776000001, "lon": 3.217714124 }, "geometry": { "type": "Point", "coordinates": [ 3.217714124, 50.741858776 ] } },
{ "type": "Feature", "properties": { "Dénomination": "Musée Art & Marges", "Unnamed: 1": "Musée", "Adresse": "Rue Haute 312-314", "Code postal": 1000, "Localité": "Bruxelles", "Géolocalisation": "50.834854541, 4.346344309", "lat": 50.834854541, "lon": 4.346344309 }, "geometry": { "type": "Point", "coordinates": [ 4.346344309, 50.834854541 ] } },
{ "type": "Feature", "properties": { "Dénomination": "Musée d'Art Spontanés et naîfs", "Unnamed: 1": "Musée", "Adresse": "Rue de la Constitution 27", "Code postal": 1030, "Localité": "Schaerbeek", "Géolocalisation": "50.860285271, 4.369936185", "lat": 50.860285271000002, "lon": 4.369936185 }, "geometry": { "type": "Point", "coordinates": [ 4.369936185, 50.860285271 ] } },
{ "type": "Feature", "properties": { "Dénomination": "Musée de la Vie Wallonne", "Unnamed: 1": "Musée", "Adresse": "Rue des Mineurs 2", "Code postal": 4000, "Localité": "Liège", "Géolocalisation": "50.646213125, 5.57655728", "lat": 50.646213125000003, "lon": 5.57655728 }, "geometry": { "type": "Point", "coordinates": [ 5.57655728, 50.646213125 ] } },
{ "type": "Feature", "properties": { "Dénomination": "Trinkhall Museum", "Unnamed: 1": "Musée", "Adresse": "Parc d’Avroy 1", "Code postal": 4000, "Localité": "Liège", "Géolocalisation": "50.63422961392452, 5.568129838739624", "lat": 50.634229613924518, "lon": 5.5681298387396243 }, "geometry": { "type": "Point", "coordinates": [ 5.568129838739624, 50.634229613924518 ] } },
{ "type": "Feature", "properties": { "Dénomination": "Musée du Château-Fort de Logne, Les Amis de Logne", "Unnamed: 1": "Musée", "Adresse": "Domaine de Palogne, rue de la Bouverie 1", "Code postal": 4190, "Localité": "Vieuxville", "Géolocalisation": "50.394537932, 5.549298188", "lat": 50.394537932, "lon": 5.549298188 }, "geometry": { "type": "Point", "coordinates": [ 5.549298188, 50.394537932 ] } },
{ "type": "Feature", "properties": { "Dénomination": "Musée régional d’Histoire et d’Archéologie", "Unnamed: 1": "Musée", "Adresse": "Rue du Collège 31", "Code postal": 4600, "Localité": "Visé", "Géolocalisation": "50.736626528, 5.694807617", "lat": 50.736626528000002, "lon": 5.694807617 }, "geometry": { "type": "Point", "coordinates": [ 5.694807617, 50.736626528 ] } },
{ "type": "Feature", "properties": { "Dénomination": "Musée Africain de Namur", "Unnamed: 1": "Musée", "Adresse": "Rue du 1er Lanciers 1", "Code postal": 5000, "Localité": "Namur", "Géolocalisation": "50.466046455, 4.871422483", "lat": 50.466046454999997, "lon": 4.871422483 }, "geometry": { "type": "Point", "coordinates": [ 4.871422483, 50.466046455 ] } },
{ "type": "Feature", "properties": { "Dénomination": "Musée de la Céramique d'Andenne", "Unnamed: 1": "Musée", "Adresse": "Rue Charles Lapierre 29", "Code postal": 5300, "Localité": "Andenne", "Géolocalisation": "50.486459322, 5.099476511", "lat": 50.486459322000002, "lon": 5.099476511 }, "geometry": { "type": "Point", "coordinates": [ 5.099476511, 50.486459322 ] } },
{ "type": "Feature", "properties": { "Dénomination": "Musée Scladina, Archéologie Andennaise", "Unnamed: 1": "Musée", "Adresse": "Rue Fond des Vaux 339D", "Code postal": 5300, "Localité": "Andenne", "Géolocalisation": "50.4850863, 5.026293899", "lat": 50.4850863, "lon": 5.026293899 }, "geometry": { "type": "Point", "coordinates": [ 5.026293899, 50.4850863 ] } },
{ "type": "Feature", "properties": { "Dénomination": "Musée du Marbre", "Unnamed: 1": "Musée", "Adresse": "Grand Rue 22", "Code postal": 6470, "Localité": "Rance", "Géolocalisation": "50.143107312, 4.269810401", "lat": 50.143107311999998, "lon": 4.269810401 }, "geometry": { "type": "Point", "coordinates": [ 4.269810401, 50.143107312 ] } },
{ "type": "Feature", "properties": { "Dénomination": "Maison de l'Imprimerie et des Lettres de Wallonie", "Unnamed: 1": "Musée", "Adresse": "Rue Verte 1B", "Code postal": 6530, "Localité": "Thuin", "Géolocalisation": "50.342336172, 4.285745223", "lat": 50.342336172000003, "lon": 4.285745223 }, "geometry": { "type": "Point", "coordinates": [ 4.285745223, 50.342336172 ] } },
{ "type": "Feature", "properties": { "Dénomination": "Pôle Muséal de Mons", "Unnamed: 1": "Musée", "Adresse": "Hôtel de Ville", "Code postal": 7000, "Localité": "Mons", "Géolocalisation": "50.454740029, 3.952239956", "lat": 50.454740029, "lon": 3.952239956 }, "geometry": { "type": "Point", "coordinates": [ 3.952239956, 50.454740029 ] } },
{ "type": "Feature", "properties": { "Dénomination": "Maison d'Erasme et Béguinage", "Unnamed: 1": "Musée", "Adresse": "Rue de Formanoir 31", "Code postal": 1070, "Localité": "Anderlecht", "Géolocalisation": "50.836302711, 4.307719805", "lat": 50.836302711000002, "lon": 4.307719805 }, "geometry": { "type": "Point", "coordinates": [ 4.307719805, 50.836302711 ] } },
{ "type": "Feature", "properties": { "Dénomination": "Musée de la Médecine ULB", "Unnamed: 1": "Musée", "Adresse": "Route de Lennik 808", "Code postal": 1070, "Localité": "Anderlecht", "Géolocalisation": "50.814181617, 4.266432435", "lat": 50.814181617000003, "lon": 4.266432435 }, "geometry": { "type": "Point", "coordinates": [ 4.266432435, 50.814181617 ] } },
{ "type": "Feature", "properties": { "Dénomination": "Musée Armand Pellegrin", "Unnamed: 1": "Musée", "Adresse": "Rue du Moulin 15", "Code postal": 1357, "Localité": "Hélecine", "Géolocalisation": "50.742776199, 4.98244412", "lat": 50.742776198999998, "lon": 4.98244412 }, "geometry": { "type": "Point", "coordinates": [ 4.98244412, 50.742776199 ] } },
{ "type": "Feature", "properties": { "Dénomination": "Musée le Grand Curtius", "Unnamed: 1": "Musée", "Adresse": "Féronstrée 136", "Code postal": 4000, "Localité": "Liège", "Géolocalisation": "50.647466587, 5.584046976", "lat": 50.647466586999997, "lon": 5.584046976 }, "geometry": { "type": "Point", "coordinates": [ 5.584046976, 50.647466587 ] } },
{ "type": "Feature", "properties": { "Dénomination": "Galerie Wittert - Musées de l'ULG - Collections Artistiques", "Unnamed: 1": "Musée", "Adresse": "Place du Vingt Août 7-bât. A1", "Code postal": 4000, "Localité": "Liège", "Géolocalisation": "50.640576421, 5.575492246", "lat": 50.640576421, "lon": 5.575492246 }, "geometry": { "type": "Point", "coordinates": [ 5.575492246, 50.640576421 ] } },
{ "type": "Feature", "properties": { "Dénomination": "Musée des Transports En Commun de Wallonie", "Unnamed: 1": "Musée", "Adresse": "Rue Richard-Heintz 9", "Code postal": 4020, "Localité": "Liège", "Géolocalisation": "50.628457571, 5.5830543", "lat": 50.628457570999998, "lon": 5.5830543 }, "geometry": { "type": "Point", "coordinates": [ 5.5830543, 50.628457571 ] } },
{ "type": "Feature", "properties": { "Dénomination": "La Boverie, Beaux-Arts Liège", "Unnamed: 1": "Musée", "Adresse": "Parce de la Boverie 3", "Code postal": 4020, "Localité": "Liège", "Géolocalisation": "50.628120023, 5.577595557", "lat": 50.628120023000001, "lon": 5.577595557 }, "geometry": { "type": "Point", "coordinates": [ 5.577595557, 50.628120023 ] } },
{ "type": "Feature", "properties": { "Dénomination": "Maison de la Science", "Unnamed: 1": "Musée", "Adresse": "Quai Edouard Van Beneden 22", "Code postal": 4020, "Localité": "Liège", "Géolocalisation": "50.638983073838006, 5.578715798262942", "lat": 50.638983073838006, "lon": 5.5787157982629418 }, "geometry": { "type": "Point", "coordinates": [ 5.578715798262942, 50.638983073838006 ] } },
{ "type": "Feature", "properties": { "Dénomination": "Pôle Muséal \"Les Bateliers\"", "Unnamed: 1": "Musée", "Adresse": "Rue Saintraint 7", "Code postal": 5000, "Localité": "Namur", "Géolocalisation": "50.463049809, 4.861022683", "lat": 50.463049808999997, "lon": 4.861022683 }, "geometry": { "type": "Point", "coordinates": [ 4.861022683, 50.463049809 ] } },
{ "type": "Feature", "properties": { "Dénomination": "Musée Félicien Rops", "Unnamed: 1": "Musée", "Adresse": "Rue Fumal 12", "Code postal": 5000, "Localité": "Namur", "Géolocalisation": "50.463013023, 4.862659307", "lat": 50.463013023000002, "lon": 4.862659307 }, "geometry": { "type": "Point", "coordinates": [ 4.862659307, 50.463013023 ] } },
{ "type": "Feature", "properties": { "Dénomination": "Centre d'archéologie, d'Art et d'histoire de Jambes", "Unnamed: 1": "Musée", "Adresse": "Place Jean de Flandre 1", "Code postal": 5100, "Localité": "Jambes", "Géolocalisation": "50.462415, 4.88938275", "lat": 50.462415, "lon": 4.88938275 }, "geometry": { "type": "Point", "coordinates": [ 4.88938275, 50.462415 ] } },
{ "type": "Feature", "properties": { "Dénomination": "Musée de la Fraise", "Unnamed: 1": "Musée", "Adresse": "Chaussée de Dinant 1037", "Code postal": 5100, "Localité": "Wépion", "Géolocalisation": "50.417499835, 4.878642831", "lat": 50.417499835000001, "lon": 4.878642831 }, "geometry": { "type": "Point", "coordinates": [ 4.878642831, 50.417499835 ] } },
{ "type": "Feature", "properties": { "Dénomination": "Musée le Bois du Cazier", "Unnamed: 1": "Musée", "Adresse": "Rue du Cazier 80", "Code postal": 6001, "Localité": "Charleroi", "Géolocalisation": "50.381179222, 4.44380329", "lat": 50.381179222, "lon": 4.44380329 }, "geometry": { "type": "Point", "coordinates": [ 4.44380329, 50.381179222 ] } },
{ "type": "Feature", "properties": { "Dénomination": "Musée de la Photographie", "Unnamed: 1": "Musée", "Adresse": "Avenue Paul Pastur 11", "Code postal": 6032, "Localité": "Charleroi", "Géolocalisation": "50.388135559, 4.404502509", "lat": 50.388135558999998, "lon": 4.404502509 }, "geometry": { "type": "Point", "coordinates": [ 4.404502509, 50.388135559 ] } },
{ "type": "Feature", "properties": { "Dénomination": "Musée Archéologique d'Arlon", "Unnamed: 1": "Musée", "Adresse": "Rue des Martyrs 13", "Code postal": 6700, "Localité": "Arlon", "Géolocalisation": "49.683840337, 5.810803335", "lat": 49.683840337, "lon": 5.810803335 }, "geometry": { "type": "Point", "coordinates": [ 5.810803335, 49.683840337 ] } },
{ "type": "Feature", "properties": { "Dénomination": "Musée des Celtes - Fondation Mons 2025", "Unnamed: 1": "Musée", "Adresse": "Place Communale 1", "Code postal": 6800, "Localité": "Libramont-Chevigny", "Géolocalisation": "49.916286052, 5.376993329", "lat": 49.916286051999997, "lon": 5.376993329 }, "geometry": { "type": "Point", "coordinates": [ 5.376993329, 49.916286052 ] } },
{ "type": "Feature", "properties": { "Dénomination": "Musée de la Famenne - Musée Van Den Abeele", "Unnamed: 1": "Musée", "Adresse": "Rue du Commerce 17", "Code postal": 6900, "Localité": "Marche-en-Famenne", "Géolocalisation": "50.227142879, 5.34372112", "lat": 50.227142879, "lon": 5.34372112 }, "geometry": { "type": "Point", "coordinates": [ 5.34372112, 50.227142879 ] } },
{ "type": "Feature", "properties": { "Dénomination": "Musée Ianchelevici, MiLL", "Unnamed: 1": "Musée", "Adresse": "Place communale 21", "Code postal": 7100, "Localité": "La Louvière", "Géolocalisation": "50.479002556, 4.185948422", "lat": 50.479002555999998, "lon": 4.185948422 }, "geometry": { "type": "Point", "coordinates": [ 4.185948422, 50.479002556 ] } },
{ "type": "Feature", "properties": { "Dénomination": "Keramis, Centre de la Céramique de la FWB", "Unnamed: 1": "Musée", "Adresse": "Place des Fours Bouteilles 1", "Code postal": 7100, "Localité": "La Louvière", "Géolocalisation": "50.46962, 4.187166715", "lat": 50.46962, "lon": 4.187166715 }, "geometry": { "type": "Point", "coordinates": [ 4.187166715, 50.46962 ] } },
{ "type": "Feature", "properties": { "Dénomination": "Domaine de Seneffe, Musée de l'Orfèvrerie", "Unnamed: 1": "Musée", "Adresse": "Rue Lucien Plasman 9", "Code postal": 7180, "Localité": "Seneffe", "Géolocalisation": "50.525925636, 4.267751226", "lat": 50.525925635999997, "lon": 4.267751226 }, "geometry": { "type": "Point", "coordinates": [ 4.267751226, 50.525925636 ] } },
{ "type": "Feature", "properties": { "Dénomination": "Musée des Arts de la Marionnette", "Unnamed: 1": "Musée", "Adresse": "Rue Saint-Martin 47", "Code postal": 7500, "Localité": "Tournai", "Géolocalisation": "50.604552293, 3.386878712", "lat": 50.604552292999998, "lon": 3.386878712 }, "geometry": { "type": "Point", "coordinates": [ 3.386878712, 50.604552293 ] } },
{ "type": "Feature", "properties": { "Dénomination": "Musée de la Rubanerie Cominoise", "Unnamed: 1": "Musée", "Adresse": "Rue des Arts 3", "Code postal": 7780, "Localité": "Comines", "Géolocalisation": "50.766474204, 3.001039988", "lat": 50.766474203999998, "lon": 3.001039988 }, "geometry": { "type": "Point", "coordinates": [ 3.001039988, 50.766474204 ] } }
]
}
